$GNGGA,141541.000,3906.5994,N,11709.6758,E,1,12,0.9,55.0,M,0.0,M,,*43
$GNGLL,3906.5994,N,11709.6758,E,141541.000,A,A*4C
$GPGSA,A,3,35,22,23,12,36,28,02,33,03,17,,,1.7,0.9,1.4*34
$BDGSA,A,3,19,10,,,,,,,,,,,1.7,0.9,1.4*20
$GPGSV,3,1,12,02,23,263,25,03,30,047,12,06,55,279,,09,11,132,*78
$GPGSV,3,2,12,12,13,322,21,17,72,067,12,22,10,042,32,23,17,098,08*73
$GPGSV,3,3,12,28,32,176,31,33,51,142,21,35,64,120,29,36,44,165,26*7C
$BDGSV,1,1,04,02,,,32,04,,,29,10,42,212,28,19,40,164,35*65
$GNRMC,141541.000,A,3906.5994,N,11709.6758,E,0.00,12.60,130319,,,A*47
$GNVTG,12.60,T,,M,0.00,N,0.00,K,A*16
$GNZDA,141541.000,13,03,2019,00,00*47
$GPTXT,01,01,01,ANTENNA OK*35
$GNGGA,141542.000,3906.5995,N,11709.6757,E,1,12,0.9,55.1,M,0.0,M,,*4F
$GNGLL,3906.5995,N,11709.6757,E,141542.000,A,A*41
$GPGSA,A,3,35,22,23,12,36,28,02,33,03,17,,,1.7,0.9,1.4*34
$BDGSA,A,3,19,10,,,,,,,,,,,1.7,0.9,1.4*20
$GPGSV,3,1,12,02,23,263,25,03,30,047,12,06,55,279,,09,11,132,*78
$GPGSV,3,2,12,12,13,322,21,17,72,067,12,22,10,042,32,23,17,098,08*73
$GPGSV,3,3,12,28,32,176,31,33,51,142,21,35,64,120,28,36,44,165,26*7D
$BDGSV,1,1,04,02,,,32,04,,,29,10,42,212,28,19,40,164,35*65
$GNRMC,141542.000,A,3906.5995,N,11709.6757,E,0.00,12.60,130319,,,A*4A
$GNVTG,12.60,T,,M,0.00,N,0.00,K,A*16
$GNZDA,141542.000,13,03,2019,00,00*44
$GPTXT,01,01,01,ANTENNA OK*35
$GNGGA,141543.000,3906.5995,N,11709.6756,E,1,12,0.9,55.2,M,0.0,M,,*4C
$GNGLL,3906.5995,N,11709.6756,E,141543.000,A,A*41
$GPGSA,A,3,35,22,23,12,36,28,02,33,03,17,,,1.7,0.9,1.4*34
$BDGSA,A,3,19,10,,,,,,,,,,,1.7,0.9,1.4*20
$GPGSV,3,1,12,02,23,263,23,03,30,047,16,06,55,279,,09,11,132,*7A
$GPGSV,3,2,12,12,13,322,21,17,72,067,12,22,10,042,31,23,17,098,08*70
$GPGSV,3,3,12,28,32,176,31,33,51,142,18,35,64,120,28,36,44,165,26*77
$BDGSV,1,1,04,02,,,32,04,,,29,10,42,212,28,19,40,164,35*65
$GNRMC,141543.000,A,3906.5995,N,11709.6756,E,0.00,12.60,130319,,,A*4A
$GNVTG,12.60,T,,M,0.00,N,0.00,K,A*16
$GNZDA,141543.000,13,03,2019,00,00*45
$GPTXT,01,01,01,ANTENNA OK*35
$GNGGA,141544.000,3906.5995,N,11709.6755,E,1,12,0.9,55.3,M,0.0,M,,*49
$GNGLL,3906.5995,N,11709.6755,E,141544.000,A,A*45
$GPGSA,A,3,35,22,23,12,36,28,02,33,03,17,,,1.7,0.9,1.4*34
$BDGSA,A,	‚b‚‚R¢šj
$GPTXT,01,01,01,ANTENNA OK*35
$GNGGA,141546.000,3906.5996,N,11709.6749,E,1,12,0.9,55.3,M,0.0,M,,*45
$GNGLL,3906.5996,N,11709.6749,E,141546.000,A,A*49
$GPGSA,A,3,35,22,23,12,36,28,02,33,03,17,,,1.7,0.9,1.4*34
$BDGSA,A,3,19,10,,,,,,,,,,,1.7,0.9,1.4*20
$GPGSV,3,1,12,02,23,263,23,03,30,047,16,06,55,279,22,09,11,132,*7A
$GPGSV,3,2,12,12,13,322,21,17,72,067,15,22,10,042,32,23,17,098,08*74
$GPGSV,3,3,12,28,32,176,31,33,51,142,18,35,64,120,28,36,44,165,26*77
$BDGSV,1,1,04,02,,,32,04,,,29,10,42,212,28,19,40,164,35*65
$GNRMC,141546.000,A,3906.5996,N,11709.6749,E,0.76,12.60,130319,,,A*43
$GNVTG,12.60,T,,M,0.76,N,1.41,K,A*13
$GNZDA,141546.000,13,03,2019,00,00*40
$GPTXT,01,01,01,ANTENNA OK*35
$GNGGA,141547.000,3906.5997,N,11709.6746,E,1,12,0.9,54.9,M,0.0,M,,*41
$GNGLL,3906.5997,N,11709.6746,E,141547.000,A,A*46
$GPGSA,A,3,35,22,23,12,36,28,02,33,03,17,,,1.7,0.9,1.4*34
$BDGSA,A,3,19,10,,,,,,,,,,,1.7,0.9,1.4*20
$GPGSV,3,1,12,02,23,263,23,03,30,047,16,06,55,279,22,09,11,132,*7A
$GPGSV,3,2,12,12,13,322,19,17,72,067,15,22,10,042,32,23,17,098,08*7F
$GPGSV,3,3,12,28,32,176,31,33,51,142,18,35,64,120,28,36,44,165,26*77
$BDGSV,1,1,04,02,,,32,04,,,29,10,42,212,28,19,40,164,35*65
$GNRMC,141547.000,A,3906.5997,N,11709.6746,E,0.39,12.60,130319,,,A*47
$GNVTG,12.60,T,,M,0.39,N,0.73,K,A*18
$GNZDA,141547.000,13,03,2019,00,00*41
$GPTXT,01,01,01,ANTENNA OK*35
$GNGGA,141548.000,3906.5996,N,11709.6745,E,1,11,0.9,54.5,M,0.0,M,,*43
$GNGLL,3906.5996,N,11709.6745,E,141548.000,A,A*4B
$GPGSA,A,3,35,22,23,12,36,28,02,33,17,,,,1.7,0.9,1.4*37
$BDGSA,A,3,19,10,,,,,,,,,,,1.7,0.9,1.4*20
$GPGSV,3,1,12,02,23,263,23,03,30,047,04,06,55,279,,09,11,132,*79
$GPGSV,3,2,12,12,13,322,19,17,72,067,15,22,10,042,32,23,17,098,08*7F
$GPGSV,3,3,12,28,32,176,31,33,51,142,18,35,64,120,27,36,44,165,26*78
$BDGSV,1,1,04,02,,,32,04,,,29,10,42,212,28,19,40,164,35*65
$GNRMC,141548.000,A,3906.5996,N,11709.6745,E,0.20,12.60,130319,,,A*42
$GNVTG,12.60,T,,M,0.20,N,0.37,K,A*10
$GNZDA,141548.000,13,03,2019,00,00*4E
$GPTXT,01,01,01,ANTENNA OK*35
$GNGGA,141549.000,3906.5997,N,11709.6744,E,1,11,0.9,54.7,M,0.0,M,,*40
$GNGLL,3906.5997,N,11709.6744,E,141549.000,A,A*4A
$GPGSA,A,3,35,22,23,12,36,28,02,33,17,,,,1.7,0.9,1.4*37
$BDGSA,A,3,19,10,,,,,,,,,,,1.7,0.9,1.4*20
$GPGSV,3,1,12,02,23,263,21,03,30,047,04,06,55,279,,09,11,132,*7B
$GPGSV,3,2,12,12,13,322,19,17,72,068,15,22,10,042,33,23,17,098,13*7B
$GPGSV,3,3,12,28,32,176,31,33,51,142,18,35,64,120,27,36,44,165,26*78
$BDGSV,1,1,04,02,,,32,04,,,29,10,42,212,28,19,40,164,35*65
$GNRMC,141549.000,A,3906.5997,N,11709.6744,E,0.00,12.60,130319,,,A*41
$GNVTG,12.60,T,,M,0.00,N,0.00,K,A*16
$GNZDA,141549.000,13,03,2019,00,00*4F
$GPTXT,01,01,01,ANTENNA OK*35
$GNGGA,141550.000,3906.5997,N,11709.6743,E,1,11,0.9,54.8,M,0.0,M,,*40
$GNGLL,3906.5997,N,11709.6743,E,141550.000,A,A*45
$GPGSA,A,3,35,22,23,12,36,28,02,33,17,,,,1.7,0.9,1.4*37
$BDGSA,A,3,19,10,,,,,,,,,,,1.7,0.9,1.4*20
$GPGSV,3,1,12,02,23,263,21,03,30,047,16,06,55,279,,09,11,132,*78
$GPGSV,3,2,12,12,13,322,19,17,72,068,19,22,10,042,35,23,17,098,13*71
$GPGSV,3,3,12,28,32,176,33,33,51,142,18,35,64,120,29,36,44,165,27*75
$BDGSV,1,1,04,02,,,32,04,,,29,10,42,212,28,19,40,164,35*65
$GNRMC,141550.000,A,3906.5997,N,11709.6743,E,0.00,12.60,130319,,,A*4E
$GNVTG,12.60,T,,M,0.00,N,0.00,K,A*16
$GNZDA,141550.000,13,03,2019,00,00*47
$GPTXT,01,01,01,ANTENNA OK*35
$GNGGA,141551.000,3906.5998,N,11709.6742,E,1,11,0.9,55.0,M,0.0,M,,*46
$GNGLL,3906.5998,N,11709.6742,E,141551.000,A,A*4A
$GPGSA,A,3,35,22,23,12,36,28,02,33,17,,,,1.7,0.9,1.4*37
$BDGSA,A,3,19,10,,,,,,,,,,,1.7,0.9,1.4*20
$GPGSV,3,1,12,02,23,263,23,03,30,047,16,06,55,279,,09,11,131,*79
$GPGSV,3,2,12,12,13,322,19,17,72,068,19,22,10,042,35,23,17,098,20*71
$GPGSV,3,3,12,28,32,176,35,33,51,142,18,35,64,120,31,36,44,165,29*74
$BDGSV,1,1,04,02,,,32,04,,,29,10,42,212,28,19,40,164,34*64
$GNRMC,141551.000,A,3906.5998,N,11709.6742,E,0.00,12.60,130319,,,A*41
$GNVTG,12.60,T,,M,0.00,N,0.00,K,A*16
$GNZDA,141551.000,13,03,2019,00,00*46
$GPTXT,01,01,01,ANTENNA OK*35